{"ABUDHABI": {"locationDetails": {"altitude": 18.597383499146, "lat": 24.439880466298, "lon": 54.650051560517, "mgrs": "40R BN 618 050"}, "name": "Abu Dhabi"}, "ALDHAFRA": {"locationDetails": {"altitude": 18.597383499146, "lat": 24.245060127601, "lon": 54.547083816434, "mgrs": "40R BM 509 835"}, "name": "Al Dhafra"}, "AbuMusa": {"locationDetails": {"altitude": 18.597383499146, "lat": 25.874262366447, "lon": 55.034348391583, "mgrs": "40R CP 030 632"}, "name": "Abu Musa"}, "Al Ain": {"locationDetails": {"altitude": 18.597383499146, "lat": 24.263438253558, "lon": 55.613340809672, "mgrs": "40R CM 592 841"}, "name": "Al Ain"}, "Al Dhaid": {"locationDetails": {"altitude": 18.597383499146, "lat": 25.30700724803, "lon": 55.854566001189, "mgrs": "40R CN 847 994"}, "name": "Al Dhaid"}, "Al Khazna": {"locationDetails": {"altitude": 18.597383499146, "lat": 24.206243798094, "lon": 55.117766883294, "mgrs": "40R CM 088 783"}, "name": "Al Khazna"}, "Al Madam": {"locationDetails": {"altitude": 18.597383499146, "lat": 24.978542840285, "lon": 55.792980209902, "mgrs": "40R CN 782 631"}, "name": "Al Madam"}, "Al Maktoum": {"locationDetails": {"altitude": 18.597383499146, "lat": 24.889616355297, "lon": 55.166408715131, "mgrs": "40R CN 148 540"}, "name": "Al Maktoum"}, "Al Minhad": {"locationDetails": {"altitude": 18.597383499146, "lat": 25.0230628513, "lon": 55.366937900866, "mgrs": "40R CN 352 685"}, "name": "Al Minhad"}, "AlMaksuriyah": {"locationDetails": {"altitude": 18.597383499146, "lat": 25.948222386548, "lon": 56.423339462984, "mgrs": "40R DP 423 701"}, "name": "Al Maksuriyah"}, "Bandar Abbas": {"locationDetails": {"altitude": 18.597383499146, "lat": 27.219725907418, "lon": 56.376890850765, "mgrs": "40R DR 383 109"}, "name": "Bandar Abbas"}, "Bandar Khamir": {"locationDetails": {"altitude": 18.597383499146, "lat": 26.952063295247, "lon": 55.592436819218, "mgrs": "40R CQ 603 819"}, "name": "Bandar Khamir"}, "Bandar Lengeh": {"locationDetails": {"altitude": 18.597383499146, "lat": 26.534966284785, "lon": 54.852660765831, "mgrs": "40R BQ 861 367"}, "name": "Bandar Lengeh"}, "Basaidu": {"locationDetails": {"altitude": 18.597383499146, "lat": 26.655893170745, "lon": 55.272593073628, "mgrs": "40R CQ 281 495"}, "name": "Basa'idu"}, "Chahestan": {"locationDetails": {"altitude": 18.597383499146, "lat": 27.527296408187, "lon": 56.744761747516, "mgrs": "40R DR 748 449"}, "name": "Chahestan"}, "Dehong": {"locationDetails": {"altitude": 18.597383499146, "lat": 27.306258983797, "lon": 54.649170285209, "mgrs": "40R BR 674 225"}, "name": "Dehong"}, "DibbaAlHisn": {"locationDetails": {"altitude": 18.597383499146, "lat": 25.615125931791, "lon": 56.282893008639, "mgrs": "40R DP 280 333"}, "name": "Dibba Al-Hisn"}, "Dowlatabad": {"locationDetails": {"altitude": 18.597383499146, "lat": 28.719540029834, "lon": 57.160960924554, "mgrs": "40R ES 157 769"}, "name": "Dowlatabad"}, "Dubai": {"locationDetails": {"altitude": 18.597383499146, "lat": 25.2529755735, "lon": 55.367032799786, "mgrs": "40R CN 355 940"}, "name": "Dubai"}, "EMAL": {"locationDetails": {"altitude": 18.597383499146, "lat": 24.774526242096, "lon": 54.678896006901, "mgrs": "40R BN 653 420"}, "name": "EMAL"}, "Fasa": {"locationDetails": {"altitude": 18.597383499146, "lat": 28.944174923518, "lon": 53.663931100017, "mgrs": "39R YN 597 047"}, "name": "Fasa"}, "Fujairah": {"locationDetails": {"altitude": 18.597383499146, "lat": 25.10965689705, "lon": 56.331910519103, "mgrs": "40R DN 326 773"}, "name": "Fujairah"}, "Havadarya": {"locationDetails": {"altitude": 18.597383499146, "lat": 27.155820420902, "lon": 56.17369393103, "mgrs": "40R DR 181 040"}, "name": "Havadarya"}, "Jazireh-ye Farur": {"locationDetails": {"altitude": 18.597383499146, "lat": 26.252338002228, "lon": 54.514179073682, "mgrs": "40R BQ 517 060"}, "name": "Jazireh-ye Farur"}, "Jenah": {"locationDetails": {"altitude": 18.597383499146, "lat": 27.013431274189, "lon": 54.302733608644, "mgrs": "40R BQ 324 908"}, "name": "Jenah"}, "Jiroft": {"locationDetails": {"altitude": 18.597383499146, "lat": 28.723565745326, "lon": 57.675051651755, "mgrs": "40R ES 659 775"}, "name": "Jiroft"}, "Juyom": {"locationDetails": {"altitude": 18.597383499146, "lat": 28.27060777332, "lon": 53.972988598828, "mgrs": "39R YM 917 308"}, "name": "Juyom"}, "Kerman": {"locationDetails": {"altitude": 18.597383499146, "lat": 30.275081839795, "lon": 56.957206391791, "mgrs": "40R DU 959 493"}, "name": "Kerman"}, "KharZahreh": {"locationDetails": {"altitude": 18.597383499146, "lat": 29.271524137796, "lon": 52.979075380264, "mgrs": "39R XN 923 397"}, "name": "Khar Zahreh"}, "Khasab": {"locationDetails": {"altitude": 18.597383499146, "lat": 26.165478766567, "lon": 56.23745269001, "mgrs": "40R DP 238 942"}, "name": "Khasab"}, "Khund": {"locationDetails": {"altitude": 18.597383499146, "lat": 27.542516642801, "lon": 54.997631174979, "mgrs": "40R CR 023 481"}, "name": "Khund"}, "Kish": {"locationDetails": {"altitude": 18.597383499146, "lat": 26.528273604283, "lon": 53.98114193093, "mgrs": "39R YK 971 376"}, "name": "Kish"}, "Kuznetsov": {"locationDetails": {"altitude": 18.597383499146, "lat": 26.03319834348, "lon": 53.697804307799, "mgrs": "39R YJ 700 822"}, "name": "Kuznetsov"}, "Kuznetsov South": {"locationDetails": {"altitude": 18.597383499146, "lat": 25.360749377195, "lon": 53.264186817878, "mgrs": "39R YJ 278 068"}, "name": "Kuznetsov South"}, "Lar": {"locationDetails": {"altitude": 18.597383499146, "lat": 27.675039087757, "lon": 54.389965898672, "mgrs": "40R BR 426 639"}, "name": "Lar"}, "Lavan": {"locationDetails": {"altitude": 18.597383499146, "lat": 26.81114226894, "lon": 53.353171335735, "mgrs": "39R YK 339 677"}, "name": "Lavan"}, "Lemazan": {"locationDetails": {"altitude": 18.597383499146, "lat": 27.056014216064, "lon": 54.897088414611, "mgrs": "40R BQ 914 944"}, "name": "Lemazan"}, "Murbah": {"locationDetails": {"altitude": 18.597383499146, "lat": 25.285585319436, "lon": 56.370380771324, "mgrs": "40R DN 366 967"}, "name": "Murbah"}, "Muredan": {"locationDetails": {"altitude": 18.597383499146, "lat": 28.370911857967, "lon": 57.229486973363, "mgrs": "40R ES 225 383"}, "name": "Muredan"}, "Negar": {"locationDetails": {"altitude": 18.597383499146, "lat": 29.74657624859, "lon": 56.693765692031, "mgrs": "40R DT 704 907"}, "name": "Negar"}, "Qaderabad": {"locationDetails": {"altitude": 18.597383499146, "lat": 28.300629676733, "lon": 56.64363836199, "mgrs": "40R DS 651 306"}, "name": "Qaderabad"}, "Qalat": {"locationDetails": {"altitude": 18.597383499146, "lat": 27.88569779344, "lon": 53.884614366853, "mgrs": "39R YL 840 879"}, "name": "Qalat"}, "Qeshm": {"locationDetails": {"altitude": 18.597383499146, "lat": 26.75806689519, "lon": 55.902402009607, "mgrs": "40R CQ 909 601"}, "name": "Qeshm"}, "RasalKhaimah": {"locationDetails": {"altitude": 18.597383499146, "lat": 25.765619807673, "lon": 55.953745156821, "mgrs": "40R CP 951 501"}, "name": "Ras al Khaimah"}, "Rudbar": {"locationDetails": {"altitude": 18.597383499146, "lat": 27.354462825817, "lon": 55.499609856719, "mgrs": "40R CR 516 266"}, "name": "Rudbar"}, "SHIRAZ": {"locationDetails": {"altitude": 18.597383499146, "lat": 29.536066489988, "lon": 52.598778359372, "mgrs": "39R XN 549 684"}, "name": "Shiraz"}, "Seyahu": {"locationDetails": {"altitude": 18.597383499146, "lat": 27.760149786339, "lon": 56.348501863597, "mgrs": "40R DR 358 708"}, "name": "Seyahu"}, "Sharjah": {"locationDetails": {"altitude": 18.597383499146, "lat": 25.334555782119, "lon": 55.518363090778, "mgrs": "40R CP 509 028"}, "name": "Sharjah"}, "SirAbuNuayr": {"locationDetails": {"altitude": 18.597383499146, "lat": 25.217271909447, "lon": 54.232775852909, "mgrs": "40R BN 212 919"}, "name": "Sir Abu Nuayr"}, "Sirri": {"locationDetails": {"altitude": 18.597383499146, "lat": 25.901569119189, "lon": 54.531661654981, "mgrs": "40R BP 527 671"}, "name": "Sirri"}, "Sistan": {"locationDetails": {"altitude": 18.597383499146, "lat": 26.940262190804, "lon": 56.265998388586, "mgrs": "40R DQ 271 800"}, "name": "Sistan"}, "Stennis": {"locationDetails": {"altitude": 18.597383499146, "lat": 24.840899401306, "lon": 57.602956661293, "mgrs": "40R EN 609 475"}, "name": "Stennis"}, "Tunb": {"locationDetails": {"altitude": 18.597383499146, "lat": 26.246671291809, "lon": 55.23290881434, "mgrs": "40R CQ 235 042"}, "name": "Tunb"}, "UmmAlQuwain": {"locationDetails": {"altitude": 18.597383499146, "lat": 25.527480102625, "lon": 55.529092299359, "mgrs": "40R CP 522 242"}, "name": "Umm Al Quwain"}, "Zayed Military City": {"locationDetails": {"altitude": 18.597383499146, "lat": 24.542822661565, "lon": 55.007594604615, "mgrs": "40R BN 982 158"}, "name": "Zayed Military City"}}